[{"name":"Zdravá výživa","address":"Husovo náměstí 45, Lomnice nad Popelkou","lat":50.5310506,"lng":15.3720444},{"name":"Oříšky","address":"Palackého 168, Lomnice nad Popelkou","lat":50.5292903,"lng":15.3757597},{"name":"Zdravíčko","address":"Kotíkova 286, Nová Paka","lat":50.4938783,"lng":15.51953},{"name":"Zdraví","address":"Palackého nám. 130, Hořice v Podkrkonoší","lat":50.3689456,"lng":15.6299464},{"name":"Violka","address":"Jičínská 229, Sobotka","lat":50.4677828,"lng":15.1790094},{"name":"Zde pro vás vyrábíme &#10084;","address":"","lat":50.4401225,"lng":15.3460308},{"name":"NATURA","address":"Nám. Přemyslovců 170, Nymburk","lat":50.1852075,"lng":15.040515},{"name":"FitPecky","address":"Nám. Přemyslovců 170, Nymburk","lat":50.0897278,"lng":15.0298314},{"name":"Jutak","address":"Nám. Pavla Tigrida 573, Semily","lat":50.6012636,"lng":15.3274489},{"name":"Devětsil","address":"Masarykova 5, Železný Brod","lat":50.6419753,"lng":15.2544622},{"name":"Zdravíčko","address":"Valdštejnská 7, Jilemnice","lat":50.6098433,"lng":15.5059381},{"name":"Zdravíčko","address":"Soukenná 567/7, Jablonec n/N","lat":50.7226028,"lng":15.1696425},{"name":"Potraviny","address":"Náměstí Míru 616, Rychnov u Jablonce n/N","lat":50.6836878,"lng":15.1507625},{"name":"Zdravá výživa","address":"Palackého 184/3, Čáslav","lat":49.9093747,"lng":15.3909533},{"name":"Zdravá výživa","address":"1. Máje 10, Liberec","lat":50.7666217,"lng":15.0537769},{"name":"Andělka","address":"S.K.Neumanna 589, Hradec Králové","lat":50.2135847,"lng":15.8136753},{"name":"Biopohanka","address":" Havlíčkova 146, Chrudim","lat":49.9492564,"lng":15.7945581},{"name":"Re-Barbora","address":"Široká 294, Chrudim","lat":49.9522758,"lng":15.7920544},{"name":"Slunečnice","address":"Fügnerova 208, Jičín","lat":50.4354072,"lng":15.3583789},{"name":"JIŘKA - racionální výživa","address":"Havlíčkova 72/3, Poděbrady","lat":50.1427133,"lng":15.1200808},{"name":"U čtyřlístku","address":"Jungmannovo nám. 446/21, Kutná Hora","lat":49.9479122,"lng":15.2746058},{"name":"Náš grunt","address":"Rubešova 59, Kolín","lat":50.0279358,"lng":15.2034225},{"name":"Víno, dárky, čaje","address":"1. Máje 5, Úštěk","lat":50.5842358,"lng":14.3400219},{"name":"Zdravá výživa","address":"OD Banco, Česká Lípa ","lat":50.6837558,"lng":14.5359917},{"name":"Herba","address":"České armády 5, Litoměřice","lat":50.5348167,"lng":14.1257211},{"name":"Zdravý obchod","address":"Sedláčkova 4, Čelákovice","lat":50.1624336,"lng":14.7520617},{"name":"Zdravá výživa","address":"Bělečská 36, Klánovice","lat":50.0980658,"lng":14.6713225},{"name":"Fabio","address":"Valdštejnovo nám. 91, Jičín","lat":50.4369825,"lng":15.3529433},{"name":"Delikatesy Amélie","address":"Valdštejnovo nám. 99, Jičín","lat":50.4374486,"lng":15.3507675},{"name":"Zdravý krámek","address":"Palackého 61, Jičín","lat":50.4374106,"lng":15.3515061},{"name":"Fantazie","address":"Sokolská 263/22, Česká Lípa","lat":50.6850158,"lng":14.5356939},{"name":"Zdravá výživa","address":"Tůmova 122, Vysoké Mýto","lat":49.9510992,"lng":16.1606867},{"name":"Zdravá výživa","address":"Pekelská 76, Vamberk","lat":50.1183611,"lng":16.2908856},{"name":"Zdraví ve mlýně","address":"Husova 86, Choceň","lat":50.0009631,"lng":16.2267606},{"name":"Zdravá výživa \"U tří vegetariánů\"","address":"ul. Mistra Jar. Kociána 31, Ústí n/Orlicí","lat":49.9746144,"lng":16.3944108},{"name":"Zdravá výživa","address":"Purkyňova 109, Lanškroun ","lat":49.9120739,"lng":16.6101944},{"name":"Zdravý obchůdek U Slavíka","address":"Masarykova třída 430/24, Teplice","lat":50.6423403,"lng":13.8289056},{"name":"Zdravý obchůdek U Slavíka","address":"Špitálské nám. 3517/1a, Ústí n/Labem","lat":50.6628917,"lng":14.0329444},{"name":"Vinotéka Natura - Grešík","address":"Březinova 399/2, Děčín","lat":50.7795428,"lng":14.2169536},{"name":"Mlsná Farmářka","address":"Tyršova 63, Náchod","lat":50.4161078,"lng":16.1615911},{"name":"Bylinka","address":"Komenského 63, Rychnov nad Kněžnou","lng":16.27651249809024,"lat":50.16352041744776},{"name":"Zdravá výživa","address":"Smetanovo náměstí 118, Litomyšl ","lng":16.311026725624004,"lat":49.871290374295874},{"name":"Bylinka","address":"náměstí B.Hrozného 28, Lysá nad Labem","lng":14.840846204770276,"lat":50.20210428531269},{"name":"Oáza zdraví","address":"Havlíčkova 440, Litomyšl","lng":16.309473105307152,"lat":49.8741558116318},{"name":"Špajz - bezobalka","address":"Pivovarská 3380/5, Ústí nad Labem","lng":14.038429762780098,"lat":50.66150345167971},{"name":"Makovička - bezobalka","address":"Rybalkova 1087, Louny","lng":13.806929448755373,"lat":50.35333484639516},{"name":"Zdravé potraviny","address":"V Aleji 541, Chabařovice","lng":13.942285601863645,"lat":50.672090139351575},{"name":"Dárkové zboží \"U Tří bažantů\"","address":"Husova 94/13, Slaný","lng":14.084941413966943,"lat":50.23087751656011},{"name":"Zdravá výživa","address":"náměstí Karla IV. 349 Nejdek","lng":12.73119283144623,"lat":50.32345399052767},{"name":"Zdravíčko","address":"Wilsonova 521, Slaný","lng":14.082515728191153,"lat":50.230656424550304},{"name":"Zdravá výživa \"Čtyřlístek\"","address":"Bělohorská 64, Praha 6","lng":14.372768602878137,"lat":50.08420463288116},{"name":"Zdravá výživa","address":"K Lánu 6, Praha 6","lng":14.360236994731387,"lat":50.096241540162126},{"name":"Zdravá výživa","address":"Nádražní 348, Police nad Metují","lng":16.232981331389993,"lat":50.53573798198345},{"name":"Krok - bezobalka","address":"Palackého 106, Trutnov","lng":15.911284682164192,"lat":50.56032360686727},{"name":"Zdravá výživa Echinacea","address":"Krkonošská 18, Vrchlabí","lng":15.611417864618945,"lat":50.62641229173874},{"name":"Zdravá výživa","address":"Masarykovo náměstí 36, Mnichovice","lng":14.709872573608553,"lat":49.935413493134924},{"name":"Zdravá výživa","address":"Pražská 108, Kostelec nad Černými Lesy","lng":14.858000173749838,"lat":49.993620723364366},{"name":"Zdravá výživa","address":"Čechova 960, Benešov ","lng":14.692502533287215,"lat":49.786372551857305},{"name":"Bio Rozmarýna","address":"náměstí J.Heřmana 59, Neveklov ","lng":14.533604067093776,"lat":49.75399904629142},{"name":"Zdravá výživa","address":"Olivová 42/1, Říčany","lng":14.65758333024527,"lat":49.99223373525806},{"name":"Pekárna \"U Alžběty\"","address":"Palackého 194, Turnov","lng":15.152534466173712,"lat":50.587017630025436},{"name":"Zdravá výživa","address":"náměstí J.Žižky 39/2, Bruntál ","lng":17.465939180109803,"lat":49.98911724612995},{"name":"Bezobalka zNOVA","address":"B.Němcové 3, Krnov","lng":17.69114811826402,"lat":50.08890418311325},{"name":"Obálka","address":"Říční okruh 26, Krnov","lng":17.698777100296773,"lat":50.08803066546694},{"name":"Zdravá výživa","address":"Palackého 20/14, Jeseník","lng":17.206711696712,"lat":50.23169594229604},{"name":"Natural - racionální výživa","address":"Studentská 598, Bohumín","lng":18.35854640948645,"lat":49.90225320686922},{"name":"Zdravá výživa Kopretina","address":"Zahradnická 1884, Karviná","lng":18.551707296157485,"lat":49.85812701446103},{"name":"Zelenina","address":"Hrnčířská 42, Karviná","lng":18.543993045849724,"lat":49.85430548229993},{"name":"Bylinky u Blanky","address":"Nová 1512/9, Karviná - Ráj","lng":18.572503512944518,"lat":49.840070452168135},{"name":"Zdravá výživa","address":"Slezská 96, Orlová - Poruba","lng":18.425084920267377,"lat":49.861059177289285},{"name":"Zdravá výživa VEGA","address":"Kysucká 1790/5, Český Těšín","lng":18.613552630138543,"lat":49.73358182967811},{"name":"Dobrá čočka","address":"Masarykovo náměstí 3, Nový Jičín","lng":18.010158218916533,"lat":49.59439561069263},{"name":"Zdraví od Anděla","address":"Náměstí 74/14, Valašské Meziříčí","lng":17.972031216745066,"lat":49.47094541011053},{"name":"Zdravá výživa","address":"Staroměstská 324, Třinec","lng":18.666956232880842,"lat":49.67981992249785},{"name":"Sedmikráska","address":"Lidická 1269, Třinec","lng":18.6763788889,"lat":49.66985},{"name":"Zdravá výživa","address":"Hnojník 48","lng":18.538033296546338,"lat":49.678342493277086},{"name":"Zdravá výživa","address":"Osvoboditelů 1211, Kopřivnice","lng":18.142434674126413,"lat":49.607311955635296},{"name":"Vitaharmonie","address":"Nádražní 337/4, Mohelnice","lng":16.92401316034982,"lat":49.7760694661644},{"name":"Zdravá výživa","address":"Náměstí 415, Kravaře","lng":18.004863720335145,"lat":49.93115294118999},{"name":"Farma na dosah","address":"Tržní 2322, Frýdek Místek","lng":18.34126749044409,"lat":49.674897073238355},{"name":"Zdravá výživa","address":"Palackého 46, Přerov","lng":17.44950676607595,"lat":49.451654010110005},{"name":"Zdravá výživa a Vege jídelna","address":"Masarykova 635, Holešov","lng":17.582233435196507,"lat":49.330752345371},{"name":"Farmářský krám","address":"Třída Spojenců 1247, Otrokovice","lng":17.5135897222,"lat":49.2138616667},{"name":"Zdravá výživa Sedmikráska","address":"náměstí Hrdinů 589, Staré Město","lng":17.44163322495332,"lat":49.075624925779636},{"name":"Zdravá výživa Kopretina","address":"Moravská 90, Uherský Brod","lng":17.649802091945,"lat":49.024921316212726},{"name":"Zdravá výživa","address":"náměstí Komenského 77, Fulnek","lng":17.9045246587257,"lat":49.712966637312554},{"name":"Zdravá výživa","address":"Husova 1138, Žatec","lng":13.539445247653829,"lat":50.320229945828835},{"name":"Zdravá výživa","address":"Sušilovo náměstí 48, Rousínov","lng":16.880863991187983,"lat":49.2028249633499},{"name":"Dobrá zdravá potravinka","address":"Měšťanská 4, Hodonín","lng":17.13131246876486,"lat":48.851736844146984},{"name":"Koloniál \"U Lidky\"","address":"Předměstí 397, Strážnice","lng":17.31547455236752,"lat":48.89990573503419},{"name":"Zdravá výživa","address":"Masarykova 379, Strážnice","lng":17.313552766332283,"lat":48.89927654496785},{"name":"Dokola obchod bez obalu","address":"Husova 58, Slavkov u Brna","lng":16.8779087752008,"lat":49.15396137263553},{"name":"Natural life","address":"Moravská 81, Uherský Brod","lng":17.64875976699728,"lat":49.02519517966491},{"name":"Krajinka","address":"Sloupského 1197, Uherské Hradiště","lng":17.457194519690006,"lat":49.069764063204005},{"name":"Obchůdek Turzín","address":"Poštovní 244, Třinec","lng":18.668642014951335,"lat":49.67999307313213},{"name":"Zdravá výživa pro sebe","address":"Riegrova 23, Olomouc","lng":17.24796824291892,"lat":49.59466710078664},{"name":"Zdravá výživa Marco Polo","address":"Horní Česká 204, Znojmo","lng":16.048892968830106,"lat":48.8583766928706},{"name":"Voňavý krámek","address":"náměstí T.G.Masaryka 40, Moravský Krumlov","lng":16.313831574871536,"lat":49.04920816562303},{"name":"Ovoce zelenina - zdravá výživa","address":"T.Procházky 21, Ivančice","lng":16.374899416161607,"lat":49.10312069497624},{"name":"Zdravá výživa U Milušky","address":"8.května 15, Olomouc","lng":17.249183691423507,"lat":49.59556713677584},{"name":"Zdravá výživa Šafrán","address":"Fr.Palackého 1870, Frenštát pod Radhoštěm","lng":18.213257769046734,"lat":49.54595303745375},{"name":"BezObal Duha","address":"tř. 1.máje 1908, Hranice na Moravě","lng":17.73491597657455,"lat":49.55403500914793},{"name":"Lapacho team sro a zdravá výživa","address":"Dlouhá 193/59, Ivančice","lng":16.352744452950635,"lat":49.094383352061264},{"name":"Zdravý svět","address":"Nádražní 275, Luhačovice","lng":17.753331290557536,"lat":49.098816107299925},{"name":"Bez obalu","address":"Radniční 1234, Frýdek Místek","lng":18.349699455419298,"lat":49.68512427114917},{"name":"Brána ke zdraví - zdravá výživa","address":"Orlí 17, Brno","lng":16.611685079755297,"lat":49.193808287990535},{"name":"Vega shop&Coffee","address":"Bednaříkova 2883, Brno","lng":16.68751435997369,"lat":49.209217640080844},{"name":"Hostivický jarmark","address":"Husovo náměstí 193, Hostivice","lng":14.2554985104,"lat":50.0799014353},{"name":"Proud zdraví","address":"Jakubské náměstí  54, Stařeč","lng":15.827000079964762,"lat":49.19696360570195},{"name":"Lepší potraviny","address":"Radnická 45/12, Velké Meziříčí","lng":16.011267626119665,"lat":49.35580292789234},{"name":"Zdravěnka","address":"Masarykovo náměstí 517, Náměšť nad Oslavou","lng":16.156780566671994,"lat":49.206609602985004},{"name":"Zdravá výživa Trend","address":"Nové Doby 111, Vrbno pod Pradědem","lng":17.382858174748137,"lat":50.11962221343572},{"name":"Koloniál bezobalka","address":"Bulharská 956, Pardubice","lng":15.787149989519653,"lat":50.032538584024365},{"name":"Zdravá výživa","address":"Palackého náměstí, Skuteč","lng":15.99643653662586,"lat":49.843827168361294},{"name":"Vitalita-racionální výživa","address":"Radniční 68, Hranice na Moravě","lng":17.7344574527,"lat":49.5467402304}]